stop_id,stop_name,stop_lat,stop_lon,location_type
17204,"C-24 x 7-B Comisaria Santa Gertudris Copo",21.0413600,-89.6015420,0
15807,"Fin de ruta",20.9693392,-89.6214277,0
17046,"SSP Sector Oriente",20.9646970,-89.5802170,0
15810,"Fin de ruta",20.9693443,-89.6214116,0
15982,"Ejército de Salvación",20.9417193,-89.6305207,0
16673,"Galletera DONDÉ",20.9896900,-89.6388996,0
16656,"​Gas Zeta Av. Aviación",20.9392700,-89.6645610,0
15925,"Hacienda Misné",20.9580620,-89.5737490,0
16959,"Bachoco",20.9033600,-89.7233070,0
16295,"Centro Internacional de Congresos",20.9866627,-89.6219379,0
16231,"C-108 x 45-B Fracc. Las Américas",21.0849800,-89.6605100,0
14470,"Mulchechén",20.9336749,-89.5908900,0
16319,"Fin de ruta",20.9669699,-89.6196467,0
15985,"CICY",21.0305169,-89.6371243,0
16457,"Glorieta de La Fuente de Piedra",21.0232700,-89.6494300,0
14551,"Cholul",21.0266329,-89.5709656,0
16520,"REMSA Parque Industrial",21.0697300,-89.6367000,0
16173,"Inicio de ruta",20.9660732,-89.6213955,0
16442,"C-16 x 19-A Col. Felipe Carillo Puerto",21.0118500,-89.6280900,0
17183,"Policia Municipal",20.9698140,-89.6170360,0
15183,"San Haroldo II",20.9290334,-89.5968014,0
16740,"UPP",20.9817910,-89.6511800,0
15919,"C-131 x 50 Villa Magna del Sur",20.9276448,-89.6129471,0
16603,"C-114 x 59-I Bojórquez",20.9771180,-89.6542970,0
16672,"Club Sportway Mérida",21.0119270,-89.5729870,0
17170,"Gran Corredor Turistico-Gastronomico",20.9748700,-89.6158840,0
14532,"Facultad de Ingeniería UADY",21.0474064,-89.6409176,0
16025,"C-20 x 13 Chuburná",21.0188541,-89.6318030,0
16257,"SEFOET Norte",21.0521600,-89.6409000,0
16622,"​Circuito Colonias x 77",20.9586120,-89.6471060,0
841,"Av. Itzáes x 81-A",20.9506265,-89.6471987,0
16631,"Av. Felipe Carrillo Puerto x Circuito Colonias",20.9959570,-89.6007140,0
16617,"​Clínica Médica Madero",20.9678580,-89.6539480,0
17087,"C-22 x 23 Col. Chichen Itzá",20.9616950,-89.5789360,0
13092,"Melchor Ocampo",20.9745837,-89.5644853,0
16978,"Gas G500",20.8986720,-89.7288690,0
15857,"Centro Internacional de Congresos",20.9887110,-89.6215359,0
16123,"C-1 x 22-A Bugambilias",21.0303606,-89.6346300,0
16202,"UVM",21.0531200,-89.6312500,0
17169,"C-52 x 43 Col. Centro",20.9766360,-89.6155590,0
16499,"Centro de Servicios Yucatán SSP",21.0375300,-89.6322900,0
16251,"Glorieta de Las Américas",21.0584300,-89.6456900,0
16525,"Mega Empack Carr. Progreso",21.0752122,-89.6342705,0
16184,"C-98 x 57-B Fracc. Las Américas",21.0703900,-89.6555600,0
16948,"Bodega Aurrera Express C-31 Ciudad Caucel",21.0103334,-89.7186532,0
14546,"Chichí Suárez",20.9981340,-89.5610412,0
17042,"Parque San Isidro Labrador",20.9689110,-89.5800920,0
16075,"Av. Fidel Velázquez x 12",20.9646980,-89.5851750,0
16982,"ULTRAFRIO",20.9009960,-89.7261520,0
15806,"Inicio de ruta",20.9692190,-89.6214384,0
15820,"Inicio de ruta",20.9424377,-89.6381432,0
17034,"Fin de ruta",20.9224814,-89.6875119,0
15815,"Inicio de ruta",20.9691940,-89.6214598,0
16456,"Glorieta de La Fuente de Piedra",21.0230500,-89.6494200,0
17205,"City Center Merida",21.0383050,-89.6023440,0
16228,"C-45-D x 112 Fracc. Las Américas",21.0901300,-89.6633200,0
16104,"Instituto Cumbres",21.0170362,-89.5910816,0
16737,"Plaza Canek",20.9891610,-89.6626380,0
16950,"Bachoco",20.9027930,-89.7234300,0
16330,"C-66 x 63 Col. Centro",20.9679300,-89.6270800,0
16408,"C-10 x  15 Col. Garcia Gineres",20.9901400,-89.6275500,0
16016,"Plaza Dorada C-15",20.9939705,-89.6513345,0
15927,"Av. Fidel Velázquez x 48",20.9650095,-89.5786682,0
16600,"Circuito Colonias x 59-I",20.9772690,-89.6553820,0
16114,"Gran Plaza",21.0306158,-89.6254890,0
16563,"C-61 x 54 Col. Centro",20.9670601,-89.6198237,0
16354,"INAIP Yucatán",20.9870700,-89.6272600,0
16629,"Av. Felipe Carrillo Puerto x 3",20.9989680,-89.5983200,0
16238,"C-132 x 57 Fracc. Las Américas",21.0709800,-89.6668900,0
16825,"Av. Cronista Deportivo x 117 Diag.",20.9933620,-89.7109500,0
17027,"Holcim Apasco",20.8904633,-89.7405831,0
17168,"Fridays City Center",21.0367650,-89.6026830,0
15958,"C-50 x 51 Pacabtún",20.9705793,-89.5797195,0
16372,"Centro Medico Pensiones",20.9948400,-89.6379300,0
16522,"BIMBO Parque Industrial",21.0664100,-89.6378700,0
16063,"Universidad Pedagógica Nacional",20.9482822,-89.5829814,0
16521,"REMSA Parque Industrial",21.0699900,-89.6361800,0
16952,"Fraccionamiento Ciudad Industrial C-20",20.9279530,-89.6818570,0
17167,"C-52 x 37 Fracc. La Huerta",20.9806660,-89.6148230,0
15893,"Inicio de ruta",20.9424673,-89.6382217,0
15185,"Francisco Villa Oriente",20.9597071,-89.5666539,0
17028,"Estafeta Umán",20.9102319,-89.7148126,0
17041,"Parque El Pez Volador",20.9722950,-89.5802510,0
17134,"Reyes",20.9812196,-89.5787649,0
16716,"Lapa Lapa Ciudad Caucel",21.0016290,-89.6832480,0
16343,"Clinica Mérida",20.9859100,-89.6389800,0
15956,"Chedraui Oriente",20.9668940,-89.5911880,0
15987,"Glorieta La Mestiza",21.0310820,-89.6466782,0
16130,"UNID Campus Fco. de Montejo",21.0202340,-89.6506330,0
16406,"Av. Cupules x 18",20.9916200,-89.6252600,0
16642,"Av. Pérez Ponce x 52",20.9847780,-89.6145420,0
15799,"Inicio de ruta",20.9687932,-89.6215242,0
17149,"Buenavista",20.9968697,-89.6210637,0
15166,"Tixcacal",20.9444267,-89.7001087,0
16566,"C-65 x 52 Col. Centro",20.9641998,-89.6180588,0
16588,"Av. Yucatán x 14-A",21.0190320,-89.5686730,0
17163,"El Cortijo",21.0356820,-89.6027200,0
17012,"Sams Club Aviación",20.9494550,-89.6486880,0
16983,"PEMEX",20.9231680,-89.6917800,0
16027,"Oficialía 07 del Registro Civil",21.0116530,-89.6313430,0
16223,"La Chaya Maya",20.9701000,-89.6243100,0
16232,"C-108 x C-45-B Fracc. Las Américas",21.0850200,-89.6601700,0
16644,"Walmart Paseo de Montejo",20.9856540,-89.6165560,0
16602,"Preparatoria 2 UADY",20.9807920,-89.6540920,0
16379,"IMSS Subdelegación Mérida Norte",20.9954500,-89.6449700,0
17145,"Estación La Plancha",20.9790416,-89.6099049,0
16191,"Glorieta Pilares",21.0737400,-89.6670300,0
16899,"C-80 x 41 Fracc. Ciudad Caucel",21.0010870,-89.6986590,0
16178,"Maternal Ludokids",21.0834165,-89.6576914,0
16536,"Norte Mérida",21.1047883,-89.6445438,0
16342,"C-39 x 30 Col. Centro",20.9832500,-89.6383900,0
16021,"JAPAY Cárcamo Mulsay",20.9572747,-89.6636083,0
16620,"​Circuito Colonias x 67-A",20.9620510,-89.6477980,0
17203,"Hospital Faro del Mayab",21.0441240,-89.6008590,0
17044,"C-50 X 65 Col. Pacabtún",20.9668590,-89.5801040,0
16641,"Av. Pérez Ponce x 52",20.9848170,-89.6138530,0
16606,"Circuito Colonias x 75-C",20.9540730,-89.6490940,0
16565,"C-50 x 49-C Fracc. Francisco de Montejo",21.0330980,-89.6455573,0
15942,"C-46-D x 131 Serapio Rendón",20.9279300,-89.6170590,0
16991,"Itzincab",20.9200400,-89.6971630,0
15965,"Parque La Amistad",20.9979913,-89.5957111,0
16197,"C-69 x 66 Col. Dzitya Polígono Chuburná",21.0590400,-89.6357000,0
14425,"Diamante Opichén",20.9381791,-89.6964550,0
16480,"Preparatoria Estatal No. 8",21.0337100,-89.6522400,0
15981,"Parque Melitón Salazar",20.9424353,-89.6387067,0
17165,"Hospital Faro del Mayab",21.0435670,-89.6012630,0
15973,"Escuela Primaria Elda M. Campos Navarrete",21.0323550,-89.6155620,0
17131,"Mayapán",20.9806085,-89.5938068,0
15937,"Chedraui Selecto Kalia",21.0194453,-89.5957701,0
14478,"Nueva Kukulcán",20.9384158,-89.5843784,0
17074,"Poliforum Zamná",20.9398290,-89.5945520,0
16682,"Fin de ruta",20.9635335,-89.6243137,0
12805,"El Roble",20.9123845,-89.6816279,0
16710,"C-31 x 92 Fracc. Terranova Ciudad Caucel",21.0053920,-89.7050050,0
16605,"​Circuito Colonias x 75-B",20.9549490,-89.6485990,0
16736,"Monumento Jacinto Canek",20.9938360,-89.6707550,0
16069,"C-14 x 25-B Nueva Chichén Itzá",20.9591030,-89.5707237,0
16085,"C-20 x 25 Polígono Itzimná 108",20.9943555,-89.5716246,0
16012,"Av. Mérida 2000 x 21",21.0086336,-89.6555941,0
16885,"C-96 x 89 Fracc. Ciudad Caucel II",20.9897160,-89.7125960,0
16803,"Bodegas Aurrera Expres Av. 114",21.0066421,-89.7247683,0
17173,"Av. Andres Garcia Lavin x 51",21.0215010,-89.6059850,0
16157,"JAPAY Cárcamo Mulsay",20.9576302,-89.6633242,0
15908,"Plaza Carey",21.0062947,-89.5824557,0
17040,"Parque El Pez Volador",20.9726560,-89.5805890,0
15961,"Polígono 108",20.9894621,-89.5713457,0
16019,"Av. Mérida 2000 x 69-A",20.9765700,-89.6639945,0
15977,"Plaza Las Américas C-15",20.9932530,-89.6491840,0
16488,"Super Aki Palmas",21.0381000,-89.6437300,0
16239,"Glorieta Pilares",21.0735800,-89.6667500,0
15913,"CONAGUA",20.9467090,-89.6527885,0
16004,"Av. Fuerza Aérea x 81-D",20.9444644,-89.6489371,0
17077,"Glorieta SEDENA",20.9383280,-89.6116060,0
15967,"Deportivo Bancarios",21.0091190,-89.5863554,0
17119,"Inicio de ruta",20.9834443,-89.6198344,0
16396,"C-13-1 x 76 Fracc. Residencial Pensiones",21.0002200,-89.6631100,0
16127,"Glorieta La Mestiza",21.0308111,-89.6465016,0
15930,"C-34 x 17 Los Reyes",20.9782240,-89.5720860,0
15922,"Deportivo CROC",20.9473740,-89.5882590,0
16280,"C-62 x 51 Col. Centro",20.9733900,-89.6232600,0
16920,"Congreso",20.9731303,-89.6901730,0
17172,"C-14 x Anillo Periferico Comisaria Santa Gertudris",21.0371120,-89.5947840,0
16334,"C-66 x 45 Col. Centro",20.9780800,-89.6255100,0
17089,"Av. Quetzalcoatl x 12",20.9596340,-89.5878120,0
15905,"Parque La Mariposa",20.9393440,-89.6435300,0
17219,"Santa Gertrudis Copó",21.0376433,-89.5963705,0
17211,"Parque Col. México",20.9979287,-89.6102053,0
17091,"Av. Quetzalcoatl x 12",20.9599060,-89.5849930,0
16681,"Inicio de ruta",20.9635285,-89.6242493,0
17132,"C. Colonias Oriente",20.9809493,-89.5854330,0
16640,"Av. Alemán x 27",20.9878040,-89.6102420,0
15193,"Andrés García Lavín",21.0392405,-89.6030279,0
15921,"Complejo Deportivo Kukulcán",20.9439840,-89.5926190,0
16993,"Galletera DONDÉ",20.9144460,-89.7091870,0
16587,"​Av. Yucatán x Periférico",21.0209020,-89.5672170,0
16723,"C-65 x 86 Col. Centro",20.9665160,-89.6406250,0
15940,"Parque Dolores Otero",20.9403857,-89.6253816,0
16014,"Av. Mérida 2000 x 43-B",20.9998005,-89.6645254,0
16808,"C-31 x 104 Fracc. Ciudad Caucel",21.0078300,-89.7134710,0
16221,"Guarderia Participativa Mérida",20.9773700,-89.6239400,0
16705,"C-117 Diag. x 88 Fracc.Sian Ka-An",20.9900240,-89.7068520,0
16714,"Plaza Gran Santa Fe",21.0051330,-89.6883000,0
16106,"Glorieta Kalia",21.0204019,-89.5986722,0
15935,"Av. Yucatán x 13",21.0013119,-89.5910333,0
17218,"Parque de la Mejorada",20.9691990,-89.6159881,0
16286,"Plaza Akrópolis",21.0616900,-89.6456300,0
16689,"Inicio de ruta",20.9635486,-89.6245819,0
15933,"C-40 x 25 Residencial Los Pinos",21.0036268,-89.5784967,0
16190,"C-120 x 53-C Fracc. Las Américas",21.0753700,-89.6644300,0
17188,"Harinera Bola Roja",20.9794050,-89.6151080,0
17198,"Plaza Victory Platz",21.0332680,-89.6034970,0
16186,"C-112 x 55 Fracc. Las Américas",21.0734400,-89.6612600,0
1170,"BBVA Ciudad Industrial",20.9345193,-89.6713547,0
16003,"CUM",21.0262810,-89.6265950,0
16455,"C-3 x 38 Col. Uxmal",21.0218648,-89.6451282,0
16810,"Unidad Deportiva Ciudad Caucel",21.0050620,-89.7087100,0
16076,"Centros de Estudios CTM",20.9651730,-89.5909270,0
16951,"Fraccionamiento Ciudad Industrial C-16 Diag.",20.9296540,-89.6786150,0
16653,"​Talleres ADO",20.9447550,-89.6559590,0
16195,"Campocielo",21.0585200,-89.6391100,0
16571,"Parque Principal de Komchén",21.1033387,-89.6616179,0
16263,"C.50 x 39 Fracc. Fco. de Montejo",21.0425600,-89.6416700,0
16252,"Glorieta de Las Américas",21.0586100,-89.6454400,0
16645,"Centro Internacional de Congresos",20.9884460,-89.6208490,0
17157,"Fin de ruta",20.9656675,-89.6179622,0
16064,"Av. Universidad Pedagógica x 23-C",20.9527207,-89.5826166,0
16586,"Av. Yucatán x 36",21.0079440,-89.5781490,0
16352,"Plaza de Toros Mérida",20.9847000,-89.6250500,0
17047,"Plaza Oriente",20.9596160,-89.5908840,0
14431,"Crío",20.9615198,-89.6949697,0
15910,"Gran Plaza",21.0308370,-89.6252369,0
15920,"Centenario del Ejército Mexicano x 21",20.9317590,-89.6087350,0
16125,"Bodega Aurrera Fco. De Montejo",21.0301390,-89.6408430,0
16052,"C-21 x 24 María Luisa",20.9335223,-89.6079205,0
16986,"CLEU",20.9180710,-89.7013700,0
16013,"Av. Mérida 2000 x 7",21.0044167,-89.6614952,0
15292,"Jacinto Canek",20.9944580,-89.6735276,0
16120,"C-21 x 12 Chuburná",21.0111400,-89.6258860,0
16822,"C-117 Diag. x 85 Fracc. Los Almendros",20.9903460,-89.7070500,0
17191,"Av. Libano x 29",20.9990820,-89.6113930,0
846,"​Chedraui Itzáes",20.9602945,-89.6418451,0
17161,"San Vicente Residencial",21.0485550,-89.5962810,0
17138,"Jaraneros",20.9401573,-89.5693559,0
17129,"Fénix Hospitales",20.9802380,-89.6044766,0
16658,"​Aeropuerto Internacional de Mérida",20.9375180,-89.6672930,0
16040,"Ejército de Salvación",20.9418790,-89.6310036,0
14444,"Av. 86",20.8954812,-89.6501817,0
16535,"C-31 x 18 Comisaria de Komchén",21.1044200,-89.6487600,0
16517,"Royal Plaza Campocielo",21.0588900,-89.6414600,0
16061,"Deportivo CROC",20.9474453,-89.5879060,0
17166,"Parque de Santa Gertrudis Copó",21.0400820,-89.5965470,0
17053,"Ex Fuente Maya",20.9507810,-89.5924440,0
13094,"Los Héroes",20.9811353,-89.5642330,0
17114,"Metropolitano Oriente",20.9815853,-89.5717427,0
17039,"Subdirección de Salud del Ayuntamiento de Mérida",20.9748460,-89.5807500,0
15816,"Fin de ruta",20.9693092,-89.6214223,0
15794,"Inicio de ruta",20.9689636,-89.6214974,0
16554,"Suites Mérida",21.0324492,-89.6302528,0
16475,"Plaza Colibri",21.0273300,-89.6485200,0
17033,"Inicio de ruta",20.9223762,-89.6874475,0
15989,"UNID Campus Fco. de Montejo",21.0220338,-89.6504443,0
15907,"Av. Fidel Velázquez x 22",20.9678138,-89.5695165,0
16426,"C-29 x 16 Col. Chuburna de Hidalgo",21.0062200,-89.6302500,0
16596,"C-52 x 11 Residencial Pensiones",20.9951940,-89.6479340,0
17210,"Golden Island",21.0160330,-89.6081600,0
16472,"C-58 x 57 Fracc. Fco de Montejo",21.0266500,-89.6539700,0
16080,"C-50 x 51 Pacabtún",20.9705680,-89.5799820,0
15959,"Unidad Deportiva Pacabtún",20.9752483,-89.5804278,0
16043,"Av. Constitución x 46-A",20.9425608,-89.6147548,0
16084,"Polígono 108",20.9894878,-89.5716194,0
1197,"Escuela Secundaria Federal No.2",20.9701886,-89.6575307,0
16112,"Escuela Primaria Elda M. Campos Navarrete",21.0323160,-89.6148190,0
988,"Pan Perlita Itzáes",20.9616670,-89.6418885,0
16382,"UMAA IMSS Mérida",20.9973912,-89.6526277,0
16407,"C-14 x 13 Col. Garcia Ginerés",20.9904100,-89.6293300,0
16255,"Ford Américas",21.0552800,-89.6417200,0
16152,"Av. Mérida 2000 x 69-C",20.9765420,-89.6630670,0
16196,"Campocielo",21.0586600,-89.6391300,0
16711,"C-31 x Plaza Jade",21.0048310,-89.7016590,0
16338,"C-30 x 13 Col. Garcia Ginerés",20.9919800,-89.6380100,0
15971,"Glorieta Kalia",21.0204261,-89.5980497,0
16670,"Av. Yucatan x 18",21.0190510,-89.5684290,0
15504,"Fin de ruta",20.9913979,-89.6762681,0
17160,"Algarrobos 64",21.0485750,-89.5953480,0
15904,"UTM",20.9380268,-89.6158545,0
16626,"​Dirección de Transporte",20.9220370,-89.6872230,0
14491,"Vergel",20.9507692,-89.5692161,0
16709,"Centro Acuático Ciudad Caucel",21.0064320,-89.7094650,0
16733,"Walmart Caucel",20.9964140,-89.6750210,0
16007,"Instituto Tecnológico de Mérida",21.0155843,-89.6247112,0
17013,"Inicio de ruta",20.9622311,-89.6229243,0
16249,"El Niplito Las Américas",21.0650700,-89.6438300,0
16285,"Super Akí Las Américas",21.0691800,-89.6611600,0
16531,"Coliseo Yucatán",21.0884300,-89.6373700,0
16637,"DIF Yucatán",20.9889410,-89.6083270,0
16225,"C-55 Diag. x 100-2 Fracc. Las Américas",21.0740200,-89.6559700,0
16532,"Puente de Komchén",21.1034300,-89.6389100,0
16448,"C-20-A x 13 Col. Chuburna de Hidalgo",21.0184300,-89.6343700,0
16341,"C-41 x Av Itzaes Col. Centro",20.9821857,-89.6391737,0
16735,"Av. Jacinto Canek x 59",20.9944330,-89.6712070,0
16553,"Suites Mérida",21.0327394,-89.6300704,0
16279,"Instituto Comercial Bancarios",20.9770700,-89.6227000,0
16359,"Instituto Universitario de Yucatán IUDY",20.9942700,-89.6354700,0
15924,"Av. Universidad Pedagógica x 15-E",20.9570320,-89.5826510,0
17061,"UTM",20.9382550,-89.6156810,0
17152,"UNAY",20.9740453,-89.6134834,0
17116,"Estación Teya",20.9302398,-89.5150356,0
15991,"ISSSTE Lindavista",21.0124144,-89.6563452,0
16265,"Walmart Tecnológico",21.0093500,-89.6233500,0
16206,"Glorieta Las Palmas",21.0393500,-89.6420100,0
16479,"Parque La Capilla",21.0325100,-89.6490100,0
16089,"Glorieta Rotary Internacional",21.0046777,-89.5812325,0
16604,"​Parque Ecológico del Poniente",20.9742480,-89.6559090,0
15996,"Soriana Av. Mérida 2000",20.9726127,-89.6637911,0
16814,"C-31 x 76 Fracc. Ciudad Caucel",21.0049570,-89.6971810,0
16449,"C-13 x 20 Col. Chuburna de Hidalgo",21.0192000,-89.6331600,0
16574,"Av. Tecnológico x Circuito Colonias",20.9990920,-89.6215779,0
16349,"Estacion de Bomberos No.11",20.9800100,-89.6265500,0
16094,"Av. Correa Rachó x 9",21.0055184,-89.5910119,0
16534,"C-31 x 14 Comisaria de Komchén",21.1043600,-89.6482400,0
15798,"Fin de ruta",20.9691840,-89.6214491,0
17078,"Cto. Colonias x 64",20.9379090,-89.6318690,0
16281,"Plaza Galerias",21.0391700,-89.6288200,0
15968,"Plaza Fiesta",20.9991380,-89.5969420,0
16087,"C-33 Diag. x 33 Itzimná Polígono 108",21.0016710,-89.5732690,0
16994,"San Lorenzo",20.8954850,-89.7335100,0
16189,"Glorieta Palmitas",21.0695800,-89.6688900,0
16026,"C-20 x 20-A Chuburná",21.0161904,-89.6320499,0
16538,"COBAY Komchén",21.1038300,-89.6535400,0
16044,"C-42 x 109 Canto",20.9415693,-89.6115845,0
17206,"Av. Andres Garcia Lavin x 51",21.0216250,-89.6061410,0
12870,"Mulchechén",20.9325426,-89.5911255,0
17190,"Av. Libano x 27",20.9991750,-89.6111740,0
16008,"C-7 x 20-C Xcumpich",21.0306008,-89.6348713,0
17049,"SEMUJERES Cto. Colonias",20.9584570,-89.5919020,0
16119,"Instituto Tecnológico de Mérida",21.0120987,-89.6237668,0
15858,"TAME 69",20.9628704,-89.6299578,0
16260,"C-50 x 29 Fracc. Fco. de Montejo",21.0457600,-89.6405300,0
16177,"C-106 x 47 Fracc. Las Américas",21.0858000,-89.6596800,0
16743,"Hospital General Agustin O´Horan",20.9760560,-89.6414590,0
15943,"IMSS 42 Sur",20.9282230,-89.6077280,0
17184,"Plaza Victory Platz",21.0334160,-89.6032500,0
15877,"retorno de ruta",20.9457368,-89.7000754,0
992,"Refaccionaria Apymsa",20.9562981,-89.6432559,0
15912,"Plaza Las Américas C-21",20.9912702,-89.6502404,0
16666,"​Parque Centenario del Ejército Mexicano",20.9286330,-89.6805920,0
16217,"CUM",21.0262200,-89.6261800,0
16158,"Av. Mérida 2000 x 75-B",20.9539983,-89.6633081,0
16643,"Walmart Paseo de Montejo",20.9853730,-89.6164940,0
17212,"Luxury Place",21.0288360,-89.6043044,0
16967,"Panadería La Glorieta",20.8863710,-89.7458260,0
16017,"Plaza Las Américas C-52",20.9908295,-89.6483359,0
15159,"Santa Cruz Palomeque",20.8956216,-89.6695581,0
15855,"Paseo 60",20.9835325,-89.6198565,0
17059,"Cto. Colonias x 19",20.9364770,-89.6081520,0
16376,"Av. Alfredo Barrera x 44",20.9960281,-89.6485829,0
16607,"​Walmart Pensiones C-60",20.9942380,-89.6535870,0
16627,"Plaza Gran Saudela",21.0255170,-89.5623200,0
16905,"C-114 x 37-A Fracc. Ciudad Caucel",21.0095130,-89.7250590,0
16291,"C-63 x 56 Col. Centro",20.9660491,-89.6212677,0
15953,"Av. Fidel Velázquez x 40-A",20.9671378,-89.5737277,0
16757,"C-91-A x 102 Fracc. Ciudad Caucel II",20.9884970,-89.7160340,0
16105,"Chedraui Selecto Kalia",21.0194055,-89.5962847,0
16215,"Siglo XXI",21.0331600,-89.6277400,0
16188,"Estación SSP Las Américas",21.0700900,-89.6609300,0
16046,"C-48 x 113 Cinco Colonias",20.9351914,-89.6176086,0
16077,"Chedraui Oriente",20.9665319,-89.5914734,0
16024,"Escuela Primaria Felipe Carrillo Puerto",21.0219339,-89.6311753,0
17216,"Gran Corredor Turistico-Gastronomico",20.9744485,-89.6147221,0
17196,"Av. Libano x 9",21.0078020,-89.6097280,0
17175,"C-20 x 17 Col. Itzimna",20.9942330,-89.6108190,0
16207,"Glorieta Las Palmas",21.0395300,-89.6421500,0
16638,"DIF Yucatán",20.9887630,-89.6089590,0
16805,"C-110-C x 37-D Fracc. Las Palmeras",21.0074320,-89.7214820,0
16078,"IMSS Fracc. del Parque",20.9699431,-89.5881419,0
16614,"​C-52 x 11 Residencial Pensiones",20.9950110,-89.6478100,0
15791,"Inicio de ruta",20.9691238,-89.6214598,0
15873,"Fin de ruta",20.9691890,-89.6214491,0
17000,"C-71 x 86 Col. Centro",20.9627300,-89.6400580,0
16039,"C-103 x 64-A Delio Moreno Cantón",20.9421296,-89.6337558,0
17209,"Golden Island",21.0157740,-89.6079820,0
15901,"Parque de María Luisa",20.9350663,-89.6059568,0
17055,"JAPAY Pozo Kukulkan",20.9476850,-89.5926060,0
16337,"C-28-A Diag. x 13 Col. San Damian",20.9934075,-89.6373449,0
15846,"Fin de ruta",20.9693265,-89.6214329,0
16418,"C-15 x 20 Col. Yucatán",20.9965200,-89.6253300,0
16156,"Av. Mérida 2000 x 67",20.9606304,-89.6633456,0
17008,"C-69 x 58 Col. Centro",20.9622739,-89.6230165,0
16153,"Soriana Av. Mérida 2000",20.9723684,-89.6635068,0
16258,"SEFOET Norte",21.0527300,-89.6406500,0
15997,"Av. Mérida 2000 x 61",20.9643733,-89.6637264,0
16961,"INFRA",20.9174020,-89.7031960,0
15914,"Tienda China City",20.9917967,-89.6520964,0
14477,"Nueva Kukulcán",20.9376831,-89.5842260,0
16894,"Parque Almendros III",20.9908960,-89.7104730,0
16241,"Capilla San Juan Pablo",21.0689100,-89.6568800,0
15795,"Fin de ruta",20.9691088,-89.6214652,0
15928,"Av. Fidel Velázquez x 14",20.9649441,-89.5851911,0
16028,"PROVI",20.9844436,-89.5719683,0
16669,"Av. Yucatan x Periferico",21.0207650,-89.5670450,0
16592,"Plaza Odara",21.0088920,-89.5766700,0
16088,"C-40 x 25 Residencial Los Pinos",21.0035354,-89.5789848,0
16380,"AV. Alfredo Barrera x 56",20.9986500,-89.6563900,0
16713,"Universidad Humanitas Campus Mérida",21.0062620,-89.6928490,0
16373,"ISSSTE Hospital Regional Mérida",20.9951100,-89.6411300,0
15789,"Fin de ruta",20.9693743,-89.6214062,0
16220,"Oficinas Va y Ven",20.9814700,-89.6247600,0
16618,"​Circuito Colonias x 16",20.9655370,-89.6503480,0
17006,"Coppel Itzáes",20.9499330,-89.6485260,0
16434,"C-21 X 28 Col. Chuburna",21.0124200,-89.6413600,0
16162,"Escuela Normal de Educación Primaria",20.9852551,-89.6633994,0
16815,"Universidad Humanitas Campus Mérida",21.0059920,-89.6928050,0
16599,"Preparatoria 2 UADY",20.9809650,-89.6549550,0
17082,"Jardines del Recuerdo",20.9422160,-89.6482930,0
16634,"Av. Felipe Carrillo Puerto x 17-A",20.9930430,-89.6033220,0
17130,"Mayapán",20.9806688,-89.5948207,0
16082,"C-21 x 38 Los Reyes",20.9766499,-89.5744412,0
11893,"42 Sur",20.9230025,-89.6053031,0
16979,"ACEROFERTAS",20.9047140,-89.7211860,0
16222,"Secretaria de Desarrollo Sustentable",20.9733800,-89.6246400,0
16344,"Clinica Mérida",20.9863100,-89.6391600,0
16498,"C-20-B x 3-A Col. Xcumpich",21.0384621,-89.6346998,0
17048,"Plaza Oriente",20.9593920,-89.5910280,0
16663,"Av. Benito Juárez x Av. Pedro Sainz de Baranda",20.9320310,-89.6748860,0
16250,"Plaza Akrópolis",21.0616100,-89.6459800,0
16969,"Galletera DONDÉ",20.9141350,-89.7089480,0
16816,"Casa Santos Lugo Ciudad Caucel",21.0009150,-89.7095200,0
16439,"Centro Medico INMOE",21.0122000,-89.6370300,0
15853,"TAME 68",20.9627500,-89.6293670,0
16148,"Estación de Servicio Oktan",20.9866230,-89.6582705,0
14411,"Santa Cruz Palomeque",20.8952106,-89.6698689,0
16518,"TECNO TERMA Parque Industrial",21.0627600,-89.6400300,0
16111,"C-29 x 36-A San Ramón Norte",21.0327620,-89.6086750,0
16200,"Puente Temozón Norte",21.0588900,-89.6316300,0
732,"CARD",20.9389488,-89.6024649,0
16433,"C-21 Diagn. X 34-A Col. San Luis",21.0126000,-89.6458800,0
15986,"Bodega Aurrera Fco. De Montejo",21.0304310,-89.6405330,0
17182,"C-52 x Av. Perez Ponce Col. Centro",20.9840690,-89.6142180,0
17079,"Cto. Colonias x 64-D",20.9378810,-89.6364510,0
15830,"Fiscalía",20.9564251,-89.6981388,0
16732,"Carl's Jr. Ciudad Caucel",21.0003600,-89.6807350,0
16493,"Glorieta Siglo XXI",21.0341766,-89.6317225,0
16968,"El Zaguan",20.8901080,-89.7407950,0
16572,"Inicio de ruta",20.9669599,-89.6196681,0
16000,"CONALEP II",20.9477106,-89.6570693,0
15954,"Campo de Futbol El Fénix",20.9646388,-89.5826861,0
17026,"Esc. Prim. Lic. Nicolás Moguel",20.8878366,-89.7440753,0
15188,"San Francisco Porvenir",21.0055710,-89.6664838,0
15983,"SAT",21.0233254,-89.6260896,0
16155,"Av. Mérida 2000 x 61",20.9649191,-89.6633993,0
16725,"Sala de Juicios Orales",20.9669290,-89.6320580,0
16160,"Talleres ADO",20.9453613,-89.6586892,0
16248,"El Niplito Las Américas",21.0649500,-89.6441000,0
16541,"Centro de Salud Komchén",21.1032718,-89.6570104,0
17002,"C-69 x 74 Col. Centro",20.9634400,-89.6332870,0
15881,"retorno de ruta",21.0578496,-89.5976365,0
16192,"C-59 x 132 Fracc. Las Américas",21.0695700,-89.6663900,0
17005,"C-69 x 86 Col. Centro",20.9635590,-89.6402350,0
1084,"Plaza Dorada C-15",20.9942654,-89.6515014,0
0,"",,,0
14443,"Av. 86",20.8946192,-89.6504983,0
17063,"Super AKI Santa Rosa",20.9382220,-89.6175710,0
16246,"Placita Las Américas",21.0678300,-89.6446200,0
15792,"Fin de ruta",20.9692691,-89.6214384,0
17213,"La Isla Mérida",21.0575142,-89.5976526,0
16131,"Av. Mérida 2000 x 25 Diag.",21.0154995,-89.6518819,0
15923,"Av. Universidad Pedagógica x 19-A",20.9525360,-89.5824520,0
16451,"C-13 x 24 Col. Chuburna de Hidalgo",21.0203400,-89.6372500,0
16471,"C-61 x 56 Fracc. Ampliacion Fco. de Montejo",21.0243700,-89.6524100,0
16045,"Glorieta SEDENA",20.9381014,-89.6113537,0
16612,"Hoteles Paseo de Montejo",20.9860780,-89.6199460,0
15980,"Jardines del Recuerdo",20.9420145,-89.6485505,0
17007,"ADO TAME",20.9617880,-89.6310740,0
993,"Bodega Aurrera Itzáes",20.9543590,-89.6442751,0
16132,"Av. Mérida 2000 x 31 Diag.",21.0131807,-89.6527240,0
16074,"Parque Chichén Itzá",20.9642250,-89.5809130,0
1137,"Llanteras Ciudad Industrial",20.9339180,-89.6723420,0
15999,"Av. Mérida 2000 x 73",20.9549001,-89.6635868,0
16590,"Club Sportway Mérida",21.0119340,-89.5732890,0
16650,"​Parque Francisco I. Madero",20.9699530,-89.6575690,0
16266,"Harmon Hall Campestre",21.0048400,-89.6228500,0
16601,"​CANACINTRA",20.9953470,-89.6357350,0
16524,"Mega Empack Carr. Progreso",21.0745818,-89.6352251,0
15883,"retorno de ruta",20.9203294,-89.5440840,0
16667,"​Bodegas Ciudad Industrial",20.9279130,-89.6827500,0
17200,"Manantiales de Cocoyoles",21.0531320,-89.5987260,0
16219,"Juzgados Mercantil y Familiar",20.9833900,-89.6234100,0
16227,"C-45-D x 114-A Fracc. Las Américas",21.0897637,-89.6631098,0
15899,"Monumento a las Haciendas",21.0124494,-89.5833887,0
17004,"Volkswagen Aviación",20.9534620,-89.6448560,0
16621,"Circuito Colonias x 77",20.9586040,-89.6472590,0
16298,"Inicio de ruta",20.9669699,-89.6196789,0
16964,"Gas Península",20.8900820,-89.7432460,0
15995,"Centro Municipal de Danza",20.9813378,-89.6640537,0
16056,"Parque Kukulcán Alamo",20.9400603,-89.5965585,0
16031,"INCAY",20.9459229,-89.6545801,0
16002,"C-24-A x 19 Loma Bonita",21.0270608,-89.6302309,0
16113,"C-36 x 73 Montes de Amé",21.0319081,-89.6199099,0
16234,"Glorieta de Las Américas",21.0780500,-89.6598500,0
12906,"Quetzalcóatl",20.9563800,-89.5680044,0
17195,"Colegio Montejo",20.9927380,-89.6111480,0
17051,"Los Trompos Cto. Colonias",20.9546280,-89.5920250,0
15948,"Ex-Fuente Maya",20.9495004,-89.5918808,0
16659,"​Aeropuerto Internacional de Mérida",20.9379550,-89.6670670,0
17192,"Glorieta Virgen del Libano",21.0016930,-89.6106890,0
16821,"Escuela primaria Carlos Carrillo Vega",20.9967900,-89.7100030,0
16960,"Fabrica de Jabón La Corona",20.9131880,-89.7113960,0
16235,"Glorieta Fuente de Las Américas",21.0780700,-89.6594800,0
16609,"​Hoteles Paseo de Montejo",20.9868720,-89.6186990,0
17092,"Av. Quetzalcoatl x 10-C",20.9597890,-89.5841520,0
15190,"Chenkú Conalep III",21.0176997,-89.6619028,0
16597,"Campus UADY",21.0277430,-89.5589620,0
16057,"Plaza Kukulcán",20.9410130,-89.5930290,0
15882,"retorno de ruta",21.0429405,-89.5579290,0
14554,"Motul",21.0207543,-89.5659387,0
16209,"C-41 x 36 Fracc. Fco. de Montejo",21.0395900,-89.6383600,0
16478,"Parque La Capilla",21.0323700,-89.6480700,0
16194,"Capilla San Juan Pablo",21.0691600,-89.6570100,0
16906,"Hogar de Ángeles",21.0031970,-89.7229040,0
17186,"Sky City",21.0183550,-89.6068730,0
16956,"Gas Imperial",20.9444220,-89.6569210,0
15842,"Inicio de ruta",20.9689936,-89.6214974,0
844,"Autos Itzáes",20.9568832,-89.6427249,0
17066,"Escuela Vasco de Quiroga",20.9380620,-89.6284410,0
16187,"C-104 x 57 Fracc. Las Américas",21.0718000,-89.6580800,0
16102,"Deportivo Bancarios",21.0090405,-89.5869135,0
16981,"ULTRAFRIO",20.9001500,-89.7265920,0
16742,"Tribunal Superior de Justicia",20.9776370,-89.6439550,0
16768,"C-67 x 62 Col. Centro",20.9634759,-89.6241853,0
16308,"Inicio de ruta",20.9669549,-89.6195608,0
16957,"Citibanamex Itzáes",20.9525540,-89.6452790,0
16176,"C-100-1 x 47 Fracc. Las Américas",21.0856153,-89.6564632,0
15969,"JAPAY Cárcamo San Carlos",21.0137718,-89.5847461,0
15926,"C-14 x 17 Amalia Solorzano",20.9645320,-89.5693910,0
16147,"C-60 x 47 Miguel Hidalgo",20.9905392,-89.6555994,0
16414,"C-22 x 23 Col. Yucatán",20.9941900,-89.6280200,0
17202,"Residencial Cocoyoles",21.0466260,-89.6002480,0
16613,"​Hospital Juárez",20.9889090,-89.6395470,0
16271,"C-16 x 23 Col. Yucatán",20.9958700,-89.6216100,0
15947,"Estadio Carlos Iturralde",20.9457550,-89.5925110,0
16129,"CFE Subestación Chuburná",21.0226970,-89.6498970,0
16731,"Plaza Gran Santa Fe",21.0041490,-89.6871670,0
16193,"Super Akí Las Américas",21.0694600,-89.6615700,0
16268,"Av. Tecnológico x 37-D",20.9999600,-89.6220800,0
16749,"Paseo de las Fuentes",20.9799720,-89.6481270,0
16747,"Zoológico El Centenario",20.9698360,-89.6407800,0
14520,"Real Montejo",21.0350197,-89.6542336,0
16048,"C-131 x 46-D Serapio Rendón",20.9277830,-89.6168540,0
16763,"C-110-C x 31 Fracc. Las Palmeras",21.0104340,-89.7200270,0
15503,"Inicio de ruta",20.9913228,-89.6763110,0
16595,"ISSSTE Hospital Regional Mérida",20.9950080,-89.6416450,0
15929,"C-21 x 38 Salvador Alvarado Oriente",20.9765170,-89.5744250,0
17220,"Andrés García Lavín",21.0390452,-89.6002543,0
16556,"Sears Gran Plaza",21.0298703,-89.6263528,0
16146,"Plaza Dorada C-21",20.9926533,-89.6531101,0
16636,"Av. Alemán x 19",20.9905050,-89.6061490,0
17045,"C-50 x 67 Col. Pacabtún",20.9666510,-89.5803050,0
16259,"Facultad de Ingeniería",21.0492300,-89.6397300,0
16205,"Plaza The Harbor",21.0447600,-89.6292600,0
16229,"C-108 x 45-H Fracc. Las Américas",21.0885200,-89.6608600,0
990,"Domino's Itzáes",20.9591131,-89.6422850,0
16593,"Plaza Carey",21.0064470,-89.5816780,0
15895,"Escuela Preescolar Julian Martín",21.0152100,-89.6282910,0
16715,"Lapa Lapa Ciudad Caucel",21.0019180,-89.6832240,0
17029,"Estafeta Umán",20.9095706,-89.7159780,0
15951,"Bodega Aurrera Quetzalcóatl",20.9599020,-89.5787380,0
17162,"Allegra Residencial",21.0489590,-89.5970670,0
15966,"Sams Club Oriente",21.0027520,-89.5937990,0
16134,"Av. Mérida 2000 x 25",21.0082531,-89.6555567,0
16540,"Centro de Salud Komchén",21.1033913,-89.6572893,0
16347,"C-41 x 76 Col. Centro",20.9809423,-89.6305368,0
15829,"Vergel",20.9511531,-89.5683207,0
16633,"​Av. Felipe Carrillo Puerto x 17-A",20.9931740,-89.6029940,0
17194,"Av. Libano x 9",21.0072620,-89.6096220,0
16955,"Arco Av. Aviación",20.9408150,-89.6621330,0
16199,"Puente Temozón Norte",21.0588000,-89.6323300,0
14510,"Nora Quintana",20.9905437,-89.6760605,0
15932,"C-20 x 43 Leandro Valle",20.9945600,-89.5713700,0
16724,"C-65 x 80 Col. Centro",20.9672200,-89.6365710,0
17003,"C-69 x 80 Col. Centro",20.9638380,-89.6368300,0
14530,"CRIT",21.0421823,-89.6514712,0
15179,"Xmatkuil",20.9115730,-89.6197440,0
16226,"IECA",21.0721900,-89.6537700,0
15898,"Escuela Primaria Felipe Carrillo Puerto",21.0220910,-89.6308680,0
16243,"Parque San Antonio Hool",21.0698000,-89.6530900,0
16212,"Plaza Galerias",21.0390400,-89.6283800,0
16963,"Piedra de Agua",20.9209870,-89.6955640,0
15949,"Universidad Pedagógica Nacional",20.9486660,-89.5826260,0
17081,"Av. Fuerza Aérea x 66-A",20.9378260,-89.6458970,0
16750,"Hospital General Agustin O´Horan",20.9752100,-89.6405610,0
16015,"C-15 x 21 Diag. Jacinto Canek",20.9977759,-89.6626159,0
16594,"C-40 x 19 San Damián",20.9901190,-89.6424490,0
16826,"C-100 x 117-C Diag. Fracc. Ciudad Caucel II",20.9944230,-89.7140750,0
16261,"C-50 x 29 Fracc. Fco. de Montejo",21.0456500,-89.6403600,0
16335,"C-41 x 82 Col. Centro",20.9814800,-89.6345500,0
17171,"Plaza Magnus",21.0380380,-89.6021770,0
16664,"BIMBO Ciudad Industrial",20.9304210,-89.6771650,0
16665,"​BIMBO Ciudad Industrial",20.9301870,-89.6784370,0
16632,"​Av. Felipe Carrillo Puerto x Circuito Colonias",20.9953390,-89.6014500,0
16140,"C-15 x 68 Residencial Pensiones V",20.9967490,-89.6588718,0
16350,"Oficinas Va y Ven",20.9811600,-89.6260300,0
15843,"Fin de ruta",20.9690491,-89.6214881,0
16807,"C-31 x 110 Fracc. Ciudad Caucel",21.0092490,-89.7167850,0
15900,"C-13 x 40-B Jardines de Lindavista",21.0108270,-89.6549240,0
15994,"Plaza Paseo Canek",20.9878750,-89.6606634,0
1386,"Super Akí Centenario",20.9709446,-89.6377467,0
15874,"retorno ruta",20.9098238,-89.5910275,0
16616,"Circuito Colonias x 28",20.9688920,-89.6555690,0
996,"Eladio´s Itzáes",20.9514836,-89.6466194,0
16067,"Bodega Aurrera Quetzalcóatl",20.9601648,-89.5792261,0
16695,"C-108 x 49 Fracc. Ciudad Caucel",21.0024820,-89.7191290,0
15979,"Sams Club Aviación",20.9483776,-89.6496132,0
16904,"C-70 x 75 Fracc. Ciudad Caucel",20.9916580,-89.6988830,0
14515,"San Francisco Porvenir",21.0055186,-89.6672029,0
16139,"C-15 x 23 Diag.  Residencial Pensiones V",20.9982319,-89.6632220,0
16042,"Av. Constitución x 50",20.9400749,-89.6203820,0
16976,"INTECH",20.9078040,-89.7180850,0
15856,"Fiesta Americana",20.9863222,-89.6196259,0
11096,"Fidel Velázquez",20.9685528,-89.5661914,0
16896,"IMSS Ciudad Caucel",20.9973030,-89.6976200,0
17088,"C-24 x 23 Col. Chichen Itzá",20.9620440,-89.5800570,0
15972,"Glorieta El Pocito",21.0227420,-89.6057420,0
17155,"MAPSA",20.9053167,-89.6312774,0
16141,"Walmart Pensiones",20.9950370,-89.6538182,0
16971,"Acim",20.9165320,-89.7049430,0
16900,"C-80 x Plaza Jade",21.0039870,-89.6997210,0
17217,"Secretaría de Gobernación",20.9721644,-89.6152908,0
16244,"C-59 x 80 Fracc. Las Américas",21.0691900,-89.6489800,0
16050,"IMSS 42 Sur",20.9279160,-89.6080580,0
16230,"C-108 x 45-H Fracc. Las Américas",21.0885300,-89.6605300,0
16115,"Bostons Pizza Montejo",21.0272116,-89.6248828,0
16718,"Corralón Canek",20.9922670,-89.6677560,0
15197,"Chichí Suárez",20.9981941,-89.5617392,0
15880,"retorno de ruta",21.0475216,-89.6400196,0
17060,"Cto. Colonias x 19",20.9359780,-89.6078770,0
16917,"C-81 x 82 Diag. Fracc. Ciudad Caucel",20.9905650,-89.7011890,0
16018,"Central de Abastos",20.9868681,-89.6641339,0
16660,"​Junta de Conciliación y Arbitraje del Estado de Y",20.9360120,-89.6696820,0
16245,"C-59 x 80 Fracc. Las Américas",21.0694000,-89.6484800,0
16395,"Av. Alfredo Barrera x 23 Diag.",21.0009769,-89.6605189,0
16901,"C-80 x Plaza Jade",21.0034250,-89.6998260,0
16071,"Av. Fidel Velázquez x 14",20.9675690,-89.5692752,0
16417,"C-22 x Circuito Colonias Col. Yucatán",20.9968900,-89.6258300,0
17156,"Inicio de ruta",20.9657627,-89.6179354,0
16528,"Sport Center",21.0816100,-89.6361900,0
16381,"Av. Alfredo Barrera x 66",20.9987834,-89.6574556,0
16945,"CERT Ciudad Caucel",20.9991881,-89.7098609,0
16198,"C-69 x 66 Col. Dzitya Polígono Chuburná",21.0591500,-89.6357200,0
16171,"Fin de ruta",20.9660933,-89.6214867,0
16247,"Plaza Terraméricas",21.0683500,-89.6445000,0
16668,"​Fraccionamiento Ciudad Industrial",20.9271380,-89.6834150,0
15976,"Walmart Pensiones",20.9952060,-89.6549830,0
14509,"Nora Quintana",20.9909121,-89.6765799,0
17031,"Fac. de Matemáticas",21.0471054,-89.6439965,0
16383,"UMAA IMSS Mérida",20.9972900,-89.6530000,0
17135,"Reyes",20.9813549,-89.5780889,0
16487,"C-50 x 43 Fracc. Fco de Montejo",21.0370600,-89.6439400,0
15990,"Av. Mérida 2000 x 25 Diag.",21.0160260,-89.6518670,0
16585,"Av. Yucatán x 34",21.0075830,-89.5783230,0
16333,"C-66 x 49 Col. Centro",20.9750200,-89.6257100,0
15177,"Hospitales / 60 Sur",20.9007133,-89.6400426,0
16624,"Sams Club Aviación",20.9499490,-89.6498060,0
16269,"Av. Tecnológico x 29",21.0005500,-89.6218600,0
16118,"Av. Tecnológico x 13",21.0165314,-89.6245877,0
17193,"Glorieta Virgen del Libano",21.0017260,-89.6108820,0
16690,"Fin de ruta",20.9635436,-89.6246517,0
15918,"Parque Serapio Rendón",20.9319670,-89.6171680,0
16029,"C-13 x 40-B Jardines de Lindavista",21.0106065,-89.6545643,0
16953,"Gulf Ciudad Industrial",20.9267900,-89.6848950,0
16233,"Glorieta Los Cilindros",21.0815600,-89.6601800,0
16918,"Parque Los Almendros II",20.9911070,-89.7044060,0
16949,"COPPEL Umán",20.8837520,-89.7461990,0
14527,"Santa Gertrudis Copó",21.0372797,-89.5976271,0
16708,"C-31 x 108 Fracc. Villa Jardin",21.0083200,-89.7139220,0
17125,"Fin de ruta",20.9792163,-89.6098795,0
16706,"C-117 Diag. x 94-1 Fracc. Ciudad Caucel II",20.9922840,-89.7100560,0
16083,"C-34 x 17 Los Reyes",20.9785020,-89.5721900,0
15917,"C-46 x 111-A Cinco Colonias",20.9372454,-89.6142506,0
16103,"JAPAY Cárcamo San Carlos",21.0137160,-89.5852394,0
16283,"Glorieta de Las Pichorras",21.0897800,-89.6682500,0
16145,"Plaza Las Américas C-21",20.9907520,-89.6499840,0
16170,"Inicio de ruta",20.9660783,-89.6213955,0
15946,"Plaza Kukulcán",20.9412329,-89.5927709,0
17070,"Base Aérea Militar",20.9379340,-89.6443050,0
16898,"IMSS Ciudad Caucel",20.9973890,-89.6973230,0
16980,"Full Gas",20.9053650,-89.7208240,0
17043,"Parque San Isidro Labrador",20.9687860,-89.5798860,0
15911,"Tesla Center",21.0316370,-89.6271310,0
16318,"Inicio de ruta",20.9669849,-89.6197325,0
16954,"San Marcos Nocoh",20.9307930,-89.6772790,0
16989,"C-18 x 27 Umán",20.8768990,-89.7469140,0
16756,"Parque Gran Herradura Poniente",20.9913560,-89.7161730,0
16921,"Centro de Rehabilitación Infantil",20.9253417,-89.6020574,0
17075,"Recinto de Paz Cto. Colonias",20.9379740,-89.6259690,0
16754,"C-106 x 91-A Fracc. Viva Alegre",20.9890760,-89.7193040,0
17158,"C-52 x 61 Col. Centro",20.9658104,-89.6178501,0
16116,"SAT",21.0230430,-89.6256660,0
16452,"C-13 x 30 Fracc. Prado Chuburna",21.0214200,-89.6416900,0
17085,"Angry Angus Cto. Colonias",20.9400090,-89.5994180,0
16394,"Av. Alfredo Barrera x 23 Diag.",20.9999600,-89.6596900,0
16358,"Hospital  Regional Benito Juarez IMSS",20.9872117,-89.6391563,0
16746,"Parque de Santiago",20.9697740,-89.6301950,0
16151,"Centro Municipal de Danza",20.9807773,-89.6632490,0
16117,"CBTIS 120",21.0191246,-89.6250115,0
16264,"Walmart Tecnológico",21.0091600,-89.6235800,0
17207,"Casino Codere",21.0174520,-89.6068860,0
796,"CBTIS 95",20.9400146,-89.5982590,0
16741,"Tribunal Superior de Justicia",20.9778750,-89.6446520,0
15960,"PROCON",20.9838924,-89.5716303,0
16240,"C-59 x 124 Fracc. Las Américas",21.0691000,-89.6645300,0
17076,"Cto. Colonias x 62",20.9380150,-89.6316580,0
17180,"Club Rotario de Merida",20.9901570,-89.6111030,0
16671,"Av. Yucatan x 20-I",21.0149620,-89.5708510,0
17181,"Secretaria de Economia",20.9882570,-89.6113110,0
16454,"C-61 x 46 Fracc. Fco. de Montejo",21.0222000,-89.6457000,0
16159,"Av. Mérida 2000 x 69 Diag.",20.9473710,-89.6630930,0
16332,"C-66 x 55 Col. Centro",20.9719200,-89.6262800,0
15963,"Macroplaza",20.9994187,-89.5719841,0
16527,"Carl´s Jr. Carr. Progreso",21.0797100,-89.6352100,0
16962,"Piedra de Agua",20.9211910,-89.6958260,0
16608,"Plaza Dorada C-60",20.9937240,-89.6536530,0
16144,"Plaza Las Américas C-52",20.9910798,-89.6480090,0
16745,"Escuela Primaria Eligio Ancona",20.9705390,-89.6350150,0
15878,"retorno de ruta",20.9870238,-89.7015346,0
16137,"Av. Mérida 2000 x 90",21.0030894,-89.6652285,0
16290,"Paseo 60",20.9839900,-89.6201000,0
16166,"Inicio de ruta",20.9660732,-89.6213955,0
17035,"Cto. Colonias x 17",20.9377910,-89.6099110,0
17069,"Cto. Colonias x 64-J",20.9379500,-89.6410240,0
16721,"UPP",20.9818830,-89.6509220,0
15845,"Inicio de ruta",20.9692641,-89.6214384,0
15875,"retorno de ruta",20.9037067,-89.6426332,0
17189,"Parque de Itzimna",20.9919870,-89.6100870,0
17009,"C-69 x 66 Col. Centro",20.9628100,-89.6278400,0
16272,"Polifuncional IDEY",20.9945500,-89.6208300,0
16995,"San Lorenzo",20.8951330,-89.7332800,0
16738,"Av. Jacinto Canek x 58-A",20.9860770,-89.6577150,0
17030,"Tec. Poniente",21.0134224,-89.6636784,0
15506,"Fin de ruta",20.9902991,-89.6762708,0
17064,"CFE Cto. Colonias",20.9380010,-89.6208760,0
16060,"Ex-Fuente Maya",20.9494330,-89.5912820,0
16005,"C-66 x 103 Melitón Salazar",20.9425855,-89.6414105,0
16072,"Av. Fidel Velázquez x 20",20.9671760,-89.5722070,0
16133,"ISSSTE Lindavista",21.0121643,-89.6562641,0
16639,"​Av. Alemán x 16",20.9878900,-89.6104120,0
16977,"Gas G500",20.8987280,-89.7284760,0
16121,"C-14 x 50-A Diag. Juan B. Sosa",21.0253940,-89.6301076,0
16058,"Complejo Deportivo Kukulcán",20.9434223,-89.5929003,0
16970,"Policía Municipal Umán",20.8914510,-89.7391610,0
16009,"C-51 x 46 Fco. de Montejo",21.0308761,-89.6439102,0
17159,"Holiday Inn Cabo Norte",21.0571510,-89.5979930,0
16539,"COBAY Komchén",21.1037500,-89.6531800,0
16916,"C-69 x 88 Diag. Fracc. Ciudad Caucel",20.9944240,-89.7038190,0
17057,"Poliforum Zamná",20.9400390,-89.5951020,0
16023,"C-50 x 47 Miguel Hidalgo",20.9896126,-89.6536037,0
16079,"Parque Fracc. del Parque",20.9700280,-89.5848536,0
15803,"Inicio de ruta",20.9692341,-89.6214437,0
15984,"CBTIS 120",21.0194611,-89.6254299,0
14427,"Tixcacal",20.9446922,-89.6995077,0
16331,"IMSS No. 52",20.9686500,-89.6255800,0
16811,"Unidad Deportiva Ciudad Caucel",21.0049130,-89.7084380,0
16771,"C-67 x 62 Col. Centro",20.9634712,-89.6243682,0
15974,"C-15 x 68 Jacinto Canek",20.9967740,-89.6596070,0
16657,"​CEMEX Planta Mérida",20.9397590,-89.6642160,0
723,"CBTIS 95",20.9398296,-89.5979269,0
16973,"TYASA",20.9125200,-89.7123170,0
16944,"CERT Ciudad Caucel",20.9991232,-89.7095283,0
16161,"Auditoría Superior del Estado",21.0109267,-89.5846548,0
16353,"Plaza de Toros Mérida",20.9854300,-89.6249600,0
15851,"Inicio de ruta",20.9344465,-89.6635652,0
15950,"Cruz Roja Oriente",20.9598796,-89.5807335,0
16356,"Av. Colon x 28",20.9884100,-89.6369300,0
17208,"C-16 x Circuito Colonias Col. Mexico",20.9974120,-89.6101820,0
17199,"Centro Universitario Anglo Mexicano",21.0532370,-89.5989110,0
16070,"C-14 x 17 Amalia Solorzano",20.9648536,-89.5695593,0
16772,"C-67 x 62 Col. Centro",20.9634962,-89.6245181,0
16413,"Av. Cupules x 22",20.9937000,-89.6281400,0
16034,"Av. Fuerza Aérea x 81-E",20.9454214,-89.6488459,0
16820,"Escuela primaria Carlos Carrillo Vega",20.9965410,-89.7103440,0
16073,"Av. Fidel Velázquez x 16-A",20.9654895,-89.5769730,0
16647,"Av. Colón x Av. Reforma",20.9865950,-89.6236930,0
16519,"TECNO TERMA Parque Industrial",21.0627400,-89.6396500,0
16635,"Av. Alemán x 19",20.9908710,-89.6054370,0
16011,"Av. Mérida 2000 x 31 Diag.",21.0135816,-89.6527885,0
16615,"​Parque Ecológico del Poniente",20.9734530,-89.6558220,0
16136,"Av. Mérida 2000 x 11-A1",21.0038962,-89.6629756,0
16203,"CFE Sector Norte",21.0505500,-89.6302900,0
17050,"SEMUJERES Cto. Colonias",20.9582860,-89.5917090,0
15186,"Francisco Villa Oriente",20.9603134,-89.5673024,0
16966,"Mercado Municipal Umán",20.8808344,-89.7484522,0
16752,"C-90-C x 91 Fracc. Ciudad Caucel",20.9885580,-89.7081810,0
15964,"Parque La Amistad",20.9978012,-89.5955020,0
16589,"Av. Yucatan x 24",21.0151330,-89.5709680,0
16108,"Glorieta El Pocito",21.0220437,-89.6051415,0
16748,"C-65 x 68 Col. Centro",20.9661210,-89.6276130,0
16038,"Parque Melitón Salazar",20.9425155,-89.6383582,0
16990,"Policía Municipal Umán",20.8914210,-89.7388230,0
14480,"Kanasín",20.9436301,-89.5773538,0
16652,"Circuito Colonias x 14",20.9649710,-89.6498240,0
16450,"C-13 x 26 Col. Chuburna de Hidalgo",21.0204200,-89.6372800,0
14469,"42 Sur",20.9217047,-89.6060487,0
17052,"Los Trompos Cto. Colonias",20.9543580,-89.5922350,0
15896,"C-17 x 20 Chuburná",21.0155545,-89.6314971,0
17084,"Base Aérea Militar",20.9378100,-89.6443330,0
16654,"​Maquiladoras Av. Aviación",20.9431320,-89.6584960,0
16985,"La Gas",20.9187930,-89.7005420,0
17124,"Inicio de ruta",20.9792420,-89.6098137,0
16720,"The Home Depot Canek",20.9870950,-89.6598460,0
15849,"Fin de ruta",20.9690704,-89.6214695,0
15916,"Av. Constitución x 50",20.9398750,-89.6201560,0
16033,"Sams Club Aviación",20.9478814,-89.6492696,0
17150,"Mejorada",20.9684906,-89.6161495,0
16584,"Fin de ruta",20.9221757,-89.6873081,0
15804,"Fin de ruta",20.9693543,-89.6214116,0
16823,"C-117 Diag. x 96 Fracc. Los Almendros",20.9927460,-89.7105160,0
14492,"Quetzalcóatl",20.9566484,-89.5671044,0
17065,"CFE Cto. Colonias",20.9381860,-89.6209240,0
16744,"CEUM",20.9713190,-89.6400270,0
16965,"Registro Civil Umán",20.8877008,-89.7477229,0
16181,"Glorieta Las Américas II",21.0771200,-89.6565200,0
16555,"Fin de ruta",20.9661083,-89.6215403,0
16068,"Hacienda Misné",20.9579670,-89.5730220,0
17036,"C-44 x 19 Col. Pacabtún",20.9764210,-89.5773370,0
15886,"retorno de ruta",20.9643207,-89.5456379,0
16049,"C-131 x 46 Serapio Rendón",20.9278003,-89.6125232,0
16035,"C-109-C x Av. Fuerza Aérea",20.9408221,-89.6479873,0
17197,"Av. Libano x 1-G",21.0119400,-89.6089440,0
16006,"C-103 x 64-A Delio Moreno Cantón",20.9419345,-89.6331762,0
16687,"Inicio de ruta",20.9635385,-89.6244371,0
16143,"Plaza Las Américas C-15",20.9934292,-89.6490010,0
16717,"Carl's Jr. Ciudad Caucel",20.9998010,-89.6803290,0
16730,"Chedraui Ciudad Caucel",21.0055380,-89.6895380,0
17154,"Parque La Plancha",20.9786071,-89.6133664,0
16081,"Unidad Deportiva Pacabtún",20.9755230,-89.5799129,0
16010,"Av. Mérida 2000 x 19",21.0194549,-89.6510718,0
15194,"Los Héroes",20.9810702,-89.5636107,0
17121,"Retorno de ruta",20.9303680,-89.5143163,0
16237,"Glorieta Los Gansos de Polo",21.0747400,-89.6591500,0
16022,"C-79-A x Av. Mérida 2000",20.9501450,-89.6627830,0
17128,"Fénix Hospitales",20.9801080,-89.6053673,0
15897,"C-20 x 15 Juan B. Sosa",21.0187470,-89.6316880,0
16267,"Harmon Hall Campestre",21.0049100,-89.6226000,0
15992,"Parque del Reloj Chenkú",21.0058841,-89.6579596,0
16182,"Glorieta Las Américas II",21.0771100,-89.6563900,0
16958,"CARFIX Aviación",20.9474520,-89.6517770,0
15173,"El Roble",20.9129208,-89.6811220,0
15988,"Super Akí Fco de Montejo",21.0275067,-89.6481642,0
16175,"C-49 x 47-B Fracc. Las Américas",21.0840900,-89.6549800,0
17113,"Metropolitano Oriente",20.9814703,-89.5723598,0
16427,"Full Gas Chuburna",21.0081300,-89.6313000,0
16092,"Plaza Fiesta",20.9993020,-89.5973360,0
17090,"Av. Quetzalcoatl x 18",20.9597770,-89.5879200,0
17001,"ADO TAME",20.9631840,-89.6310700,0
16674,"Atlantida",20.9845262,-89.6551645,0
16817,"Casa Santos Lugo Ciudad Caucel",21.0009010,-89.7092210,0
16722,"Paseo de las Fuentes",20.9801930,-89.6481030,0
14550,"Cholul",21.0272187,-89.5724679,0
16984,"PEMEX",20.9225600,-89.6923230,0
16183,"C-55 Diag. x 100-1 Fracc. Las Américas",21.0735900,-89.6558700,0
16059,"Estadio Carlos Iturralde",20.9453563,-89.5927877,0
16897,"C-80 x 45 Fracc. Ciudad Caucel",21.0003640,-89.6987040,0
16598,"Carretera Mérida-Motul x Anillo Periférico",21.0225920,-89.5655630,0
843,"Bodega Aurrerá Itzáes",20.9539973,-89.6441896,0
16997,"Parque Principal Umán",20.8805150,-89.7465820,0
16992,"Itzincab",20.9204360,-89.6973250,0
15852,"Fin de ruta",20.9343763,-89.6635544,0
16974,"TYASA",20.9124040,-89.7120220,0
16253,"Plaza Santa Monica",21.0579900,-89.6427700,0
15945,"Parque Kukulcán Alamo",20.9398057,-89.5962314,0
12843,"Hospitales / 60 Sur",20.8998112,-89.6403435,0
16630,"​Av. Felipe Carrillo Puerto x 5",20.9987310,-89.5987600,0
15931,"Parque Fracc. del Parque",20.9698020,-89.5834980,0
14432,"ISSSTE Susulá",20.9692240,-89.6906613,0
15505,"Inicio de ruta",20.9904027,-89.6761932,0
16655,"Maquiladoras Av. Aviación",20.9434050,-89.6585160,0
15812,"Inicio de ruta",20.9693142,-89.6214277,0
17062,"Super AKI Santa Rosa",20.9380310,-89.6176140,0
16902,"Bodega Aurrera Ciudad Caucel",20.9949440,-89.6977890,0
16526,"BMW Motorrad Mérida",21.0651412,-89.6327415,0
15906,"Parque San Antonio Kaua",20.9459020,-89.5856150,0
16110,"Ateneo",21.0301661,-89.6042565,0
17056,"Modulo Médico Cto. Colonias",20.9471240,-89.5924120,0
17068,"Cto. Colonias x 64-D",20.9379730,-89.6367150,0
17214,"C-50 x 35 Fracc. La Huerta",20.9822673,-89.6126890,0
16753,"Parque Gran Herradura Poniente",20.9913350,-89.7180560,0
16377,"Av. Alfredo Barrera x 52",20.9958628,-89.6487710,0
15978,"Chedraui Selecto Norte",21.0286685,-89.6311002,0
17054,"Ex Fuente Maya",20.9511270,-89.5922080,0
14495,"Fidel Velázquez",20.9676211,-89.5655052,0
16218,"Av. Tecnológico x 19-A",21.0128100,-89.6242600,0
16374,"ISSSTE Hospital Regional Mérida",20.9951800,-89.6396900,0
16712,"C-31 x 76-A Fracc. La Perla",21.0052650,-89.6971000,0
15822,"Inicio de ruta",20.9425279,-89.6389747,0
15894,"Fin de ruta",20.9424664,-89.6380988,0
17178,"C-18 x 13 Col. Itzimna",20.9963150,-89.6080760,0
16813,"C-31 x Plaza Jade",21.0043700,-89.7005930,0
15993,"Av. Mérida 2000 x 128",21.0036509,-89.6653626,0
14536,"Universidad Marista",21.0476867,-89.6195883,0
16494,"Glorieta Siglo XXI",21.0342462,-89.6320017,0
16688,"Fin de ruta",20.9635486,-89.6245122,0
13091,"Melchor Ocampo",20.9749143,-89.5651345,0
17067,"Escuela Vasco de Quiroga",20.9379210,-89.6284700,0
16336,"C-39 x 80 Col. Centro",20.9825900,-89.6341100,0
16185,"C-45-I x 114-A Fracc. Las Américas",21.0872300,-89.6658300,0
17086,"Parque Chichen Itzá",20.9639830,-89.5801120,0
16453,"C-13 x 28 Fracc. Prado Chuburna",21.0212600,-89.6414200,0
15797,"Inicio de ruta",20.9690587,-89.6214759,0
14479,"Kanasín",20.9421271,-89.5783411,0
16378,"IMSS Subdelegación Mérida Norte",20.9956200,-89.6448300,0
15809,"Inicio de ruta",20.9692341,-89.6214384,0
16351,"C-66 x 39 Col. Centro",20.9816600,-89.6253100,0
16903,"CFE Ciudad Caucel",20.9949290,-89.6970480,0
17072,"Boxito Av. Fuerza Aérea",20.9393490,-89.6480160,0
16091,"Av. Yucatán x 60",21.0010200,-89.5910750,0
17133,"C. Colonias Oriente",20.9810995,-89.5842258,0
16646,"​Asilo Brunet Celarain",20.9902180,-89.6232970,0
17177,"Av. Libano x 19",21.0033680,-89.6103620,0
16481,"Preparatoria Estatal No. 8",21.0339300,-89.6522200,0
16254,"Plaza Santa Monica",21.0581200,-89.6428300,0
16270,"Circuito Colonias",20.9968000,-89.6213400,0
14426,"Diamante Opichén",20.9383495,-89.6958490,0
16696,"C-39-A x 110 Fracc. Ciudad Caucel",21.0055120,-89.7185130,0
16812,"C-31 x 90 Fracc. Ciudad Caucel",21.0051380,-89.7050870,0
16107,"Citibanamex Montealbán",21.0211030,-89.6011023,0
16591,"Plaza Odara",21.0086840,-89.5772290,0
12865,"Xmatkuil",20.9120959,-89.6202307,0
16032,"CONAGUA",20.9474760,-89.6522359,0
16275,"C-62 x 29 Col. Alcala Martin",20.9897100,-89.6220400,0
16310,"Inicio de ruta",20.9640795,-89.6179891,0
15876,"retorno de ruta",20.8812370,-89.7466207,0
16886,"C-95 x 94 Fracc. Ciudad Caucel",20.9877780,-89.7106960,0
15938,"Av. Andrés García Lavín x 41",21.0252686,-89.6051201,0
16020,"Av. Mérida 2000 x 53",20.9691317,-89.6637587,0
17140,"Cementerio Kanasín",20.9376773,-89.5626503,0
17174,"C-7-B x 14 Comisaria Santa Gertudris Copo",21.0393690,-89.5942170,0
15182,"San Haroldo II",20.9287774,-89.5965722,0
16809,"Centro Acuático Ciudad Caucel",21.0061340,-89.7094790,0
16274,"C-60 X 25 Col. Alcala Martin",20.9915100,-89.6203300,0
17137,"Héroes",20.9817009,-89.5652519,0
16109,"Av. Andrés García Lavín x 41",21.0256238,-89.6053296,0
17073,"Boxito Av. Fuerza Aérea",20.9394480,-89.6478410,0
14433,"ISSSTE Susulá",20.9693571,-89.6899164,0
15800,"Fin de ruta",20.9689235,-89.6215028,0
16947,"C-100 x 117-F Diag. Fracc. Ciudad Caucel II",20.9926279,-89.7153006,0
15936,"Av. Correa Rachó x 5",21.0058845,-89.5901750,0
16419,"CENDI No. 1 Felipa Poot",20.9994100,-89.6269900,0
15941,"Parque Cinco Colonias",20.9342789,-89.6143578,0
16410,"Av. Cupules x 30",20.9962700,-89.6317400,0
16256,"Ford Américas",21.0559000,-89.6415100,0
16093,"Sams Club Oriente",21.0029147,-89.5940427,0
16037,"C-66 x 99-A Obrera",20.9418451,-89.6420381,0
16625,"​Centro Estatal de Información sobre Seguridad Púb",20.9222060,-89.6903700,0
16126,"C-51 x 46 Fco. de Montejo",21.0308769,-89.6446884,0
16999,"C-71 x 74 Col. Centro",20.9621500,-89.6338200,0
16610,"Carretera Mérida Motul x 22",21.0288370,-89.5595660,0
16573,"Fin de ruta",20.9669499,-89.6195930,0
16804,"C-31 x 110-D Fracc. Ciudad Caucel II",21.0108540,-89.7208710,0
17176,"Av. Libano x 17",21.0037540,-89.6104940,0
15885,"retorno de ruta",20.9904613,-89.5383382,0
16516,"Royal Plaza Campocielo",21.0590700,-89.6417700,0
15813,"Fin de ruta",20.9694406,-89.6213916,0
16036,"Parque La Mariposa",20.9398403,-89.6433794,0
16415,"C-18 x 23 Col. Yucatán",20.9935300,-89.6259100,0
16051,"Centenario del Ejército Mexicano x 125",20.9318060,-89.6089090,0
15892,"Fin de ruta",20.9424828,-89.6389049,0
16345,"C-25 x 10 Col. Garcia Ginerés",20.9854506,-89.6277418,0
16135,"Parque del Reloj Chenkú",21.0055940,-89.6578900,0
16428,"C-16 x 28 Col. Chuburna",21.0088200,-89.6285600,0
16278,"C-62 x 39 Col. Centro",20.9811700,-89.6221200,0
15952,"C-14 x 25-B Benito Juárez Oriente",20.9595840,-89.5703749,0
15788,"Inicio de ruta",20.9692441,-89.6214384,0
16287,"Facultad de Ingeniería",21.0490200,-89.6401200,0
16242,"Parque San Antonio Hool",21.0695400,-89.6530800,0
16431,"C-21 Diagn. x 36 Col. San Luis",21.0150100,-89.6491800,0
16755,"C-100 x 117-A-1 Diag. Fracc. Ciudad Caucel II",20.9946090,-89.7137700,0
16523,"BIMBO Parque Industrial",21.0661800,-89.6383900,0
16179,"C-100-2 x 49-D Fracc. Las Américas",21.0812600,-89.6569400,0
16150,"Av. Mérida 2000 x 59-A2",20.9877870,-89.6635070,0
16201,"BMW-Hyundai",21.0544300,-89.6309300,0
15848,"Inicio de ruta",20.9690086,-89.6214813,0
16628,"​PROALMEX",21.0233400,-89.5645380,0
17011,"Av. Itzáes x 79",20.9573870,-89.6427760,0
16946,"C-100 x 117-F Diag. Fracc. Ciudad Caucel II",20.9923069,-89.7156710,0
16128,"Super Akí Fco de Montejo",21.0269780,-89.6481000,0
16533,"Planta MASECA Mérida",21.0921100,-89.6381100,0
17136,"Héroes",20.9818608,-89.5646993,0
17187,"Torre Triada",21.0115720,-89.6087940,0
14533,"Facultad de Ingeniería UADY",21.0466754,-89.6411217,0
15872,"Inicio de ruta",20.9691038,-89.6214652,0
15934,"Los Arcos",21.0047872,-89.5851375,0
16734,"Walmart Caucel",20.9964850,-89.6745420,0
16651,"​Clínica Médica Madero",20.9673180,-89.6534840,0
17058,"Angry Angus Cto. Colonias",20.9397990,-89.5992460,0
16284,"Glorieta Los Cilindros",21.0815800,-89.6598200,0
17141,"Kanasín",20.9431684,-89.5766136,0
16719,"Corralón Canek",20.9916580,-89.6671520,0
16915,"C-69 x 82 Fracc. Ciudad Caucel",20.9936930,-89.6998660,0
16649,"​Av. Jacinto Canek x Circuito Colonias",20.9837380,-89.6543540,0
16739,"Av. Jacinto Canek x Av. Zamná",20.9857520,-89.6576910,0
16583,"Inicio de ruta",20.9221206,-89.6872705,0
16988,"C-20-A x 27 Umán",20.8771180,-89.7503480,0
16357,"Hospital Regional Benito Juarez IMSS",20.9875341,-89.6387714,0
17185,"C-7-B x 22 Comisaria Santa Gertudris Copo",21.0407770,-89.6006950,0
16987,"La Guadalupe",20.8853298,-89.7481519,0
16309,"Fin de ruta",20.9669298,-89.6194696,0
16047,"Parque Serapio Rendón",20.9320300,-89.6170340,0
15191,"Real Montejo",21.0362490,-89.6546077,0
16567,"Fin de ruta",20.9669599,-89.6196145,0
15884,"retorno de ruta",20.9988587,-89.5548924,0
16149,"Plaza Canek",20.9887509,-89.6625893,0
16474,"Parque Fco. de Montejo II",21.0286738,-89.6521714,0
16204,"Plaza The Harbor",21.0463400,-89.6299700,0
17037,"Cto. Colonias x 17",20.9379770,-89.6098460,0
17010,"C-71 x 64 Col. Centro",20.9612921,-89.6274205,0
16420,"CENDI No. 1 Felipa Poot",20.9997100,-89.6269900,0
15962,"Parroquia El Buen Pastor",21.0027544,-89.5736261,0
15998,"Av. Mérida 2000 x 67",20.9607863,-89.6636351,0
16424,"Facultad de Contaduría UADY",21.0036800,-89.6294500,0
16500,"Centro de Servicios Yucatán SSP",21.0374700,-89.6325500,0
16124,"CICY",21.0303340,-89.6361010,0
16662,"Av. Benito Juárez x Av. Pedro Sainz de Baranda",20.9313980,-89.6753084,0
16484,"C-50 x 49-C Fracc. Francisco de Montejo",21.0336800,-89.6455600,0
16975,"INTECH",20.9081610,-89.7172240,0
16224,"Dunosusa Las Américas II",21.0742700,-89.6581300,0
15915,"C-29 x 36-B San Ramón Norte",21.0328241,-89.6091809,0
16537,"Norte Mérida",21.1049380,-89.6449086,0
17179,"C-18 x 17 Col. Itzimna",20.9945310,-89.6090640,0
16066,"Cruz Roja Oriente",20.9601149,-89.5807400,0
17108,"Parque Kanasín",20.9351406,-89.5581385,0
16441,"Iglesia de Chuburna Hidalgo",21.0114834,-89.6321195,0
16497,"C-20-B x 3 Col. Xcumpich",21.0395600,-89.6346600,0
16824,"Av. Cronista Deportivo x 73",20.9935210,-89.7106260,0
16355,"Parque de las Américas",20.9877200,-89.6319500,0
16174,"Fin de ruta",20.9660883,-89.6214652,0
15939,"C-73 x 38 Montes de Amé",21.0319179,-89.6209346,0
14538,"Universidad Marista",21.0472361,-89.6201410,0
16611,"Plaza Gran Saudela",21.0257090,-89.5625800,0
16138,"Av. Mérida 2000 x 43-B",20.9995291,-89.6641290,0
15957,"IMSS Fracc. del Parque",20.9697744,-89.5874125,0
16236,"Glorieta Los Gansos de Polo",21.0746100,-89.6594800,0
16346,"Preparatoria Iberoamericana",20.9872000,-89.6298500,0
16122,"Chedraui Selecto Norte",21.0279975,-89.6306548,0
16090,"Los Arcos",21.0042514,-89.5856419,0
15168,"Fiscalía",20.9574070,-89.6980643,0
14555,"Motul",21.0214703,-89.5654082,0
16001,"Atlantida",20.9859861,-89.6559639,0
16208,"Plaza Via",21.0394300,-89.6376900,0
16086,"Macroplaza",20.9994000,-89.5723100,0
16998,"C-71 x 78 Col. Centro",20.9624420,-89.6366260,0
15955,"Centros de Estudios CTM",20.9653551,-89.5898478,0
847,"Av. Itzáes x 71",20.9620928,-89.6416308,0
15171,"Crío",20.9609136,-89.6948349,0
16276,"Consulado EU",20.9884400,-89.6198100,0
17139,"Jaraneros",20.9399221,-89.5693075,0
15975,"Suzuki Siglo XXI",21.0315791,-89.6275169,0
17083,"UTM",20.9382580,-89.6162260,0
15891,"Inicio de ruta",20.9424728,-89.6388137,0
15817,"Retorno de ruta",21.0266557,-89.5710144,0
16154,"Av. Mérida 2000 x 33",20.9699779,-89.6634637,0
15693,"Academia de Policía",20.9228672,-89.6874958,0
16062,"Parque San Antonio Kaua",20.9461282,-89.5854809,0
16425,"Facultad de Contaduría UADY",21.0036800,-89.6292800,0
17071,"Av. Fuerza Aérea x 66-B",20.9379950,-89.6462360,0
17014,"Fin de ruta",20.9622261,-89.6228653,0
733,"Parque de María Luisa",20.9351858,-89.6062254,0
16262,"C.50 x 39 Fracc. Fco. de Montejo",21.0426300,-89.6418500,0
15828,"CRIT",21.0413033,-89.6525520,0
17147,"Ateneo",21.0308922,-89.6045838,0
16819,"Parque Los Almendros II",20.9915240,-89.7050820,0
16996,"IMSS UmÃ¡n",20.8744570,-89.7477010,0
17164,"C-52 x 51 Col. Centro",20.9725060,-89.6163910,0
15189,"Chenkú Conalep III",21.0169235,-89.6616457,0
16529,"Xcanatún Residencial",21.0845900,-89.6367100,0
16972,"Acim",20.9169200,-89.7036780,0
15970,"Instituto Cumbres",21.0172972,-89.5909259,0
15187,"Jacinto Canek",20.9966115,-89.6729649,0
17080,"Cto. Colonias x 64-J",20.9378240,-89.6417160,0
17038,"Recinto de Paz Cto. Colonias",20.9381080,-89.6258480,0
15887,"retorno de ruta",21.0119259,-89.6567202,0
16311,"Fin de ruta",20.9640545,-89.6178925,0
16530,"Coliseo Yucatán",21.0889600,-89.6366100,0
16030,"Monumento a las Haciendas",21.0131860,-89.5838770,0
16041,"Parque Dolores Otero",20.9405261,-89.6249365,0
16348,"Parque de La Iberica",20.9820100,-89.6301800,0
16273,"Estadio Gral. Salvador Alvarado",20.9933800,-89.6228400,0
17201,"Residencial Cocoyoles",21.0469390,-89.6004170,0
16619,"Circuito Colonias x 67",20.9627430,-89.6478140,0
16065,"Av. Universidad Pedagógica x 17",20.9568994,-89.5828257,0
16623,"Sams Club Aviación",20.9505400,-89.6497470,0
16661,"​Junta Local de Conciliación y Arbitraje del Estad",20.9364770,-89.6693460,0
17153,"Museo del Ferrocarril",20.9764899,-89.6126416,0
15944,"C-21 x 22 María Luisa",20.9339935,-89.6070568,0
16180,"C-100-2 x 49-D Fracc. Las Américas",21.0811700,-89.6567800,0
15902,"CARD",20.9388581,-89.6021702,0
15818,"Inicio de ruta",20.9222058,-89.6873242,0
